{
"type": "FeatureCollection",
"name": "Pendidikan",
"crs": { "type": "name", "properties": { "name": "urn:ogc:def:crs:OGC:1.3:CRS84" } },
"features": [
{ "type": "Feature", "properties": { "Nama": "Dinas Pendidikan Dan Kebudayaan Kota Magelang", "Jenis": "Kantor Pemerintah Kota", "Rating": 4.0, "Review": 41, "Alamat": "Jl. Alibasah Sentot Prawirodirjo No.6 · (0293) 368529", "kota": "Magelang", "Full Address": "Dinas Pendidikan Dan Kebudayaan Kota Magelang Jl. Alibasah Sentot Prawirodirjo No.6 · (0293) 368529 Magelang ", "Latitude": -7.4737556, "Longitude": 110.212965 }, "geometry": { "type": "Point", "coordinates": [ 110.212965, -7.4737556 ] } },
{ "type": "Feature", "properties": { "Nama": "CABDIN (Cabang Dinas Pendidikan WilayahVIII", "Jenis": "Kantor Pemerintah", "Rating": 4.0, "Review": 1, "Alamat": "G6G7+66W", "kota": "Magelang", "Full Address": "CABDIN (Cabang Dinas Pendidikan WilayahVIII G6G7+66W Magelang ", "Latitude": -7.4743971, "Longitude": 110.2130852 }, "geometry": { "type": "Point", "coordinates": [ 110.2130852, -7.4743971 ] } },
{ "type": "Feature", "properties": { "Nama": "Balai Diklat Kepemimpinan BPPK Magelang", "Jenis": "Kantor Pemerintah", "Rating": 4.6, "Review": 32, "Alamat": "Jl. Alun-Alun Utara No.2 · (0293) 363150", "kota": "Magelang", "Full Address": "Balai Diklat Kepemimpinan BPPK Magelang Jl. Alun-Alun Utara No.2 · (0293) 363150 Magelang ", "Latitude": -7.4759452, "Longitude": 110.2176168 }, "geometry": { "type": "Point", "coordinates": [ 110.2176168, -7.4759452 ] } },
{ "type": "Feature", "properties": { "Nama": "SD Negeri Magelang 3", "Jenis": "Sekolah Dasar", "Rating": 3.7, "Review": 15, "Alamat": "G6G6+FX2, Jl. Alibasah Sentot", "kota": "Magelang", "Full Address": "SD Negeri Magelang 3 G6G6+FX2, Jl. Alibasah Sentot Magelang ", "Latitude": -7.4738564, "Longitude": 110.212383 }, "geometry": { "type": "Point", "coordinates": [ 110.212383, -7.4738564 ] } },
{ "type": "Feature", "properties": { "Nama": "BP2MK MAGELANG", "Jenis": "Kantor Pemerintahan Kota", "Rating": 4.3, "Review": 11, "Alamat": "G6G7+FJ9", "kota": "Magelang", "Full Address": "BP2MK MAGELANG G6G7+FJ9 Magelang ", "Latitude": -7.4738412, "Longitude": 110.2140954 }, "geometry": { "type": "Point", "coordinates": [ 110.2140954, -7.4738412 ] } },
{ "type": "Feature", "properties": { "Nama": "TKIT Asy-Syaffa 1", "Jenis": "Taman Kanak-kanak", "Rating": 4.9, "Review": 26, "Alamat": "Kampung Tulung 48/91 Magelang · (0293) 363683", "kota": "Magelang", "Full Address": "TKIT Asy-Syaffa 1 Kampung Tulung 48/91 Magelang · (0293) 363683 Magelang ", "Latitude": -7.4669307, "Longitude": 110.2162489 }, "geometry": { "type": "Point", "coordinates": [ 110.2162489, -7.4669307 ] } },
{ "type": "Feature", "properties": { "Nama": "UNIVERSITAS PSATIR MAGELANG", "Jenis": "Perguruan Tinggi", "Rating": 5.0, "Review": 1, "Alamat": "G6J9+MGJ, Jl. Pierre Tendean", "kota": "Magelang", "Full Address": "UNIVERSITAS PSATIR MAGELANG G6J9+MGJ, Jl. Pierre Tendean Magelang ", "Latitude": -7.4682788, "Longitude": 110.2187781 }, "geometry": { "type": "Point", "coordinates": [ 110.2187781, -7.4682788 ] } }
]
}
